{
  "accomodations": [
    {
      "id": "seoul_1",
      "title": "Lotte Hotel Seoul",
      "city": "Seoul",
      "category": "luxury hotel",
      "description": "Iconic 5-star landmark in Myeongdong with executive lounge and shopping access.",
      "address": "30 Eulji-ro, Jung-gu, Seoul",
      "lat": 37.5648,
      "lng": 126.9805,
      "price_range": "350,000-650,000 KRW",
      "hours": "Check-in 15:00 / Check-out 11:00",
      "image": "https://english.visitkorea.or.kr/image/lotte_hotel_seoul.jpg",
      "specialty": "Executive floors & indoor pool"
    },
    {
      "id": "seoul_2",
      "title": "Four Seasons Hotel Seoul",
      "city": "Seoul",
      "category": "luxury hotel",
      "description": "Ultra-luxury hotel with palace views and world-class dining.",
      "address": "97 Saemunan-ro, Jongno-gu, Seoul",
      "lat": 37.5708,
      "lng": 126.9750,
      "price_range": "550,000-1,200,000 KRW",
      "hours": "Check-in 15:00 / Check-out 12:00",
      "image": "https://english.visitkorea.or.kr/image/four_seasons_seoul.jpg",
      "specialty": "Gyeongbokgung view"
    },
    {
      "id": "seoul_3",
      "title": "Shilla Stay Mapo",
      "city": "Seoul",
      "category": "business hotel",
      "description": "Modern hotel directly connected to Gongdeok Station.",
      "address": "83 Mapo-daero, Mapo-gu, Seoul",
      "lat": 37.5428,
      "lng": 126.9539,
      "price_range": "120,000-220,000 KRW",
      "hours": "Check-in 15:00 / Check-out 12:00",
      "image": "https://english.visitkorea.or.kr/image/shilla_stay_mapo.jpg",
      "specialty": "Transit convenience"
    },
    {
      "id": "seoul_4",
      "title": "Ryse Autograph Collection Hongdae",
      "city": "Seoul",
      "category": "boutique hotel",
      "description": "Art-forward lifestyle hotel in Hongdae.",
      "address": "130 Yanghwa-ro, Mapo-gu, Seoul",
      "lat": 37.5572,
      "lng": 126.9228,
      "price_range": "280,000-500,000 KRW",
      "hours": "Check-in 15:00 / Check-out 12:00",
      "image": "https://english.visitkorea.or.kr/image/ryse_hongdae.jpg",
      "specialty": "Rooftop bar & exhibitions"
    },
    {
      "id": "seoul_5",
      "title": "Rakkojae Bukchon Hanok Stay",
      "city": "Seoul",
      "category": "hanok stay",
      "description": "Traditional hanok stay with cultural experiences.",
      "address": "49-23 Gyedong-gil, Jongno-gu, Seoul",
      "lat": 37.5819,
      "lng": 126.9847,
      "price_range": "200,000-400,000 KRW",
      "hours": "Check-in 15:00 / Check-out 11:00",
      "image": "https://english.visitkorea.or.kr/image/rakkojae.jpg",
      "specialty": "Korean cultural immersion"
    },

    {
      "id": "incheon_1",
      "title": "Paradise City Hotel & Resort",
      "city": "Incheon",
      "category": "integrated resort",
      "description": "Art-tainment resort 5 minutes from Incheon Airport.",
      "address": "186 Yeongjonghaeannam-ro 321beon-gil, Jung-gu, Incheon",
      "lat": 37.4417,
      "lng": 126.4556,
      "price_range": "280,000-600,000 KRW",
      "hours": "Check-in 15:00 / Check-out 11:00",
      "image": "https://english.visitkorea.or.kr/image/paradise_city.jpg",
      "specialty": "Casino & art installations"
    },
    {
      "id": "incheon_2",
      "title": "Grand Hyatt Incheon",
      "city": "Incheon",
      "category": "airport hotel",
      "description": "Premium airport hotel connected to Terminal 2.",
      "address": "208 Yeongjonghaeannam-ro, Jung-gu, Incheon",
      "lat": 37.4483,
      "lng": 126.4553,
      "price_range": "220,000-450,000 KRW",
      "hours": "Check-in 15:00 / Check-out 12:00",
      "image": "https://english.visitkorea.or.kr/image/grand_hyatt_incheon.jpg",
      "specialty": "Free airport shuttle"
    },

    {
      "id": "busan_1",
      "title": "Park Hyatt Busan",
      "city": "Busan",
      "category": "luxury hotel",
      "description": "Ocean-view hotel near Haeundae and Marine City.",
      "address": "51 Marine City 1-ro, Haeundae-gu, Busan",
      "lat": 35.1577,
      "lng": 129.1534,
      "price_range": "380,000-750,000 KRW",
      "hours": "Check-in 15:00 / Check-out 11:00",
      "image": "https://english.visitkorea.or.kr/image/park_hyatt_busan.jpg",
      "specialty": "Infinity pool & ocean view"
    },
    {
      "id": "busan_2",
      "title": "Shilla Stay Haeundae",
      "city": "Busan",
      "category": "business hotel",
      "description": "Modern stay steps from Haeundae Beach.",
      "address": "46 Haeun-daero 570beon-gil, Haeundae-gu, Busan",
      "lat": 35.1603,
      "lng": 129.1636,
      "price_range": "140,000-250,000 KRW",
      "hours": "Check-in 15:00 / Check-out 12:00",
      "image": "https://english.visitkorea.or.kr/image/shilla_stay_haeundae.jpg",
      "specialty": "Beach access"
    },

    {
      "id": "daegu_1",
      "title": "Hotel Inter-Burgo Daegu",
      "city": "Daegu",
      "category": "luxury hotel",
      "description": "Prestigious hotel with riverside views.",
      "address": "212 Palhyeon-ro, Suseong-gu, Daegu",
      "lat": 35.8854,
      "lng": 128.6513,
      "price_range": "200,000-400,000 KRW",
      "hours": "Check-in 15:00 / Check-out 11:00",
      "image": "https://english.visitkorea.or.kr/image/interburgo_daegu.jpg",
      "specialty": "Convention facilities"
    },
    {
      "id": "daegu_2",
      "title": "Eldis Regent Hotel",
      "city": "Daegu",
      "category": "business hotel",
      "description": "Business-friendly stay in downtown Daegu.",
      "address": "2033 Dalgubeol-daero, Jung-gu, Daegu",
      "lat": 35.8662,
      "lng": 128.5936,
      "price_range": "110,000-200,000 KRW",
      "hours": "Check-in 14:00 / Check-out 12:00",
      "image": "https://english.visitkorea.or.kr/image/eldis_regent.jpg",
      "specialty": "City center access"
    },

    {
      "id": "daejeon_1",
      "title": "LOTTE City Hotel Daejeon",
      "city": "Daejeon",
      "category": "business hotel",
      "description": "Modern business hotel in Expo area.",
      "address": "33 Expo-ro, Yuseong-gu, Daejeon",
      "lat": 36.3745,
      "lng": 127.3861,
      "price_range": "140,000-250,000 KRW",
      "hours": "Check-in 15:00 / Check-out 11:00",
      "image": "https://english.visitkorea.or.kr/image/lotte_daejeon.jpg",
      "specialty": "Expo view"
    },
    {
      "id": "daejeon_2",
      "title": "Hotel ICC",
      "city": "Daejeon",
      "category": "business hotel",
      "description": "Adjacent to Daejeon Convention Center.",
      "address": "123 Expo-ro, Yuseong-gu, Daejeon",
      "lat": 36.3731,
      "lng": 127.3873,
      "price_range": "130,000-220,000 KRW",
      "hours": "Check-in 14:00 / Check-out 12:00",
      "image": "https://english.visitkorea.or.kr/image/hotel_icc.jpg",
      "specialty": "Convention facilities"
    },

    {
      "id": "gwangju_1",
      "title": "ACC Design Hotel",
      "city": "Gwangju",
      "category": "boutique hotel",
      "description": "Art-inspired hotel near Asian Culture Center.",
      "address": "30 Gwangjuyeodae-ro, Dong-gu, Gwangju",
      "lat": 35.1466,
      "lng": 126.9221,
      "price_range": "100,000-200,000 KRW",
      "hours": "Check-in 15:00 / Check-out 12:00",
      "image": "https://english.visitkorea.or.kr/image/acc_design.jpg",
      "specialty": "Art & design"
    },
    {
      "id": "gwangju_2",
      "title": "Holiday Inn Gwangju",
      "city": "Gwangju",
      "category": "business hotel",
      "description": "Comfortable stay near Kim Daejung Convention Center.",
      "address": "55 Sangmunuri-ro, Seo-gu, Gwangju",
      "lat": 35.1604,
      "lng": 126.8515,
      "price_range": "150,000-260,000 KRW",
      "hours": "Check-in 15:00 / Check-out 11:00",
      "image": "https://english.visitkorea.or.kr/image/holiday_inn_gwangju.jpg",
      "specialty": "Indoor pool"
    },

    {
      "id": "suwon_1",
      "title": "Novotel Ambassador Suwon",
      "city": "Suwon",
      "category": "business hotel",
      "description": "Directly connected to Suwon Station.",
      "address": "902 Deogyeong-daero, Paldal-gu, Suwon",
      "lat": 37.2664,
      "lng": 127.0007,
      "price_range": "180,000-300,000 KRW",
      "hours": "Check-in 15:00 / Check-out 12:00",
      "image": "https://english.visitkorea.or.kr/image/novotel_suwon.jpg",
      "specialty": "Station access"
    },
    {
      "id": "suwon_2",
      "title": "Ramada Plaza Suwon",
      "city": "Suwon",
      "category": "business hotel",
      "description": "Stylish hotel near Suwon City Hall.",
      "address": "150 Jungbu-daero, Paldal-gu, Suwon",
      "lat": 37.2634,
      "lng": 127.0286,
      "price_range": "160,000-260,000 KRW",
      "hours": "Check-in 14:00 / Check-out 12:00",
      "image": "https://english.visitkorea.or.kr/image/ramada_suwon.jpg",
      "specialty": "Sauna & fitness"
    },

    {
      "id": "jeju_1",
      "title": "Grand Hyatt Jeju (Jeju Dream Tower)",
      "city": "Jeju",
      "category": "luxury hotel",
      "description": "Iconic tower hotel with top restaurants and wide city views.",
      "address": "12 Noyeon-ro, Jeju-si, Jeju",
      "lat": 33.4890,
      "lng": 126.4983,
      "price_range": "350,000-800,000 KRW",
      "hours": "Check-in 15:00 / Check-out 11:00",
      "image": "https://english.visitkorea.or.kr/image/grand_hyatt_jeju.jpg",
      "specialty": "Sky pool"
    },
    {
      "id": "jeju_2",
      "title": "Hidden Cliff Hotel & Nature",
      "city": "Jeju",
      "category": "resort",
      "description": "Nature-inspired resort with famous infinity pool.",
      "address": "542 Yerae-ro, Seogwipo-si, Jeju",
      "lat": 33.2533,
      "lng": 126.4105,
      "price_range": "280,000-550,000 KRW",
      "hours": "Check-in 15:00 / Check-out 11:00",
      "image": "https://english.visitkorea.or.kr/image/hidden_cliff.jpg",
      "specialty": "Forest infinity pool"
    },

    {
      "id": "ulsan_1",
      "title": "Lotte Hotel Ulsan",
      "city": "Ulsan",
      "category": "luxury hotel",
      "description": "Premium stay located in Samsan-dong business district.",
      "address": "282 Samsan-ro, Nam-gu, Ulsan",
      "lat": 35.5384,
      "lng": 129.3380,
      "price_range": "180,000-350,000 KRW",
      "hours": "Check-in 15:00 / Check-out 12:00",
      "image": "https://english.visitkorea.or.kr/image/lotte_ulsan.jpg",
      "specialty": "Indoor pool"
    },
    {
      "id": "ulsan_2",
      "title": "Hotel Hyundai Ulsan",
      "city": "Ulsan",
      "category": "business hotel",
      "description": "Business-friendly hotel near Hyundai Heavy Industries.",
      "address": "875 Bangeojinsunhwando-ro, Dong-gu, Ulsan",
      "lat": 35.5053,
      "lng": 129.4291,
      "price_range": "140,000-250,000 KRW",
      "hours": "Check-in 14:00 / Check-out 12:00",
      "image": "https://english.visitkorea.or.kr/image/hyundai_ulsan.jpg",
      "specialty": "Fitness & sauna"
    },

    {
      "id": "pohang_1",
      "title": "Lahan Hotel Pohang",
      "city": "Pohang",
      "category": "seaside hotel",
      "description": "Beachfront hotel with ocean views.",
      "address": "1 Suseong-ro, Buk-gu, Pohang",
      "lat": 36.0683,
      "lng": 129.4016,
      "price_range": "130,000-260,000 KRW",
      "hours": "Check-in 15:00 / Check-out 11:00",
      "image": "https://english.visitkorea.or.kr/image/lahan_pohang.jpg",
      "specialty": "Oceanfront rooms"
    },
    {
      "id": "pohang_2",
      "title": "Benikea Hotel Pohang",
      "city": "Pohang",
      "category": "business hotel",
      "description": "Comfortable hotel near Yeongildae Beach.",
      "address": "45 Haean-ro, Buk-gu, Pohang",
      "lat": 36.0688,
      "lng": 129.4093,
      "price_range": "100,000-180,000 KRW",
      "hours": "Check-in 14:00 / Check-out 12:00",
      "image": "https://english.visitkorea.or.kr/image/benikea_pohang.jpg",
      "specialty": "Beach proximity"
    },

    {
      "id": "andong_1",
      "title": "CM Park Hotel",
      "city": "Andong",
      "category": "business hotel",
      "description": "Modern stay near Andong folk village.",
      "address": "10 Gwangseong-ro, Andong-si",
      "lat": 36.5651,
      "lng": 128.7250,
      "price_range": "110,000-200,000 KRW",
      "hours": "Check-in 15:00 / Check-out 11:00",
      "image": "https://english.visitkorea.or.kr/image/cm_park.jpg",
      "specialty": "Andong tourism access"
    },
    {
      "id": "andong_2",
      "title": "Andong Grand Hotel",
      "city": "Andong",
      "category": "business hotel",
      "description": "Simple and comfort-oriented city hotel.",
      "address": "222 Jungang-ro, Andong-si",
      "lat": 36.5685,
      "lng": 128.7292,
      "price_range": "90,000-160,000 KRW",
      "hours": "Check-in 14:00 / Check-out 12:00",
      "image": "https://english.visitkorea.or.kr/image/andong_grand.jpg",
      "specialty": "City center location"
    },

    {
      "id": "gangneung_1",
      "title": "Skybay Hotel Gyeongpo",
      "city": "Gangneung",
      "category": "seaside hotel",
      "description": "Seaside hotel with panoramic views of Gyeongpo Lake and Beach.",
      "address": "476 Haean-ro, Gangneung-si",
      "lat": 37.7959,
      "lng": 128.9156,
      "price_range": "160,000-280,000 KRW",
      "hours": "Check-in 15:00 / Check-out 11:00",
      "image": "https://english.visitkorea.or.kr/image/skybay_gyeongpo.jpg",
      "specialty": "Rooftop pool"
    },
    {
      "id": "gangneung_2",
      "title": "Seamarq Hotel",
      "city": "Gangneung",
      "category": "luxury hotel",
      "description": "Architectural landmark hotel with sea views.",
      "address": "2-6 Jeongdongjin-ri, Gangneung-si",
      "lat": 37.6893,
      "lng": 129.0359,
      "price_range": "300,000-600,000 KRW",
      "hours": "Check-in 15:00 / Check-out 12:00",
      "image": "https://english.visitkorea.or.kr/image/seamarq.jpg",
      "specialty": "Infinity ocean pool"
    },

    {
      "id": "sokcho_1",
      "title": "Lotte Resort Sokcho",
      "city": "Sokcho",
      "category": "seaside resort",
      "description": "Large-scale resort with spectacular ocean views.",
      "address": "186 Daepohang-gil, Sokcho-si",
      "lat": 38.1939,
      "lng": 128.5986,
      "price_range": "200,000-380,000 KRW",
      "hours": "Check-in 15:00 / Check-out 11:00",
      "image": "https://english.visitkorea.or.kr/image/lotte_sokcho.jpg",
      "specialty": "Ocean waterpark"
    },
    {
      "id": "sokcho_2",
      "title": "Kensington Hotel Seorak",
      "city": "Sokcho",
      "category": "mountain hotel",
      "description": "Hotel located at the entrance of Seoraksan National Park.",
      "address": "998 Seoraksan-ro, Sokcho-si",
      "lat": 38.1649,
      "lng": 128.4657,
      "price_range": "150,000-280,000 KRW",
      "hours": "Check-in 14:00 / Check-out 11:00",
      "image": "https://english.visitkorea.or.kr/image/kensington_seorak.jpg",
      "specialty": "Mountain view"
    },

    {
      "id": "yeosu_1",
      "title": "Sono Calm Yeosu",
      "city": "Yeosu",
      "category": "seaside hotel",
      "description": "Premium oceanfront stay near Odongdo Island.",
      "address": "111 Odongdo-ro, Yeosu-si",
      "lat": 34.7425,
      "lng": 127.7458,
      "price_range": "200,000-350,000 KRW",
      "hours": "Check-in 15:00 / Check-out 11:00",
      "image": "https://english.visitkorea.or.kr/image/sono_calm_yeosu.jpg",
      "specialty": "Harbor bridge view"
    },
    {
      "id": "yeosu_2",
      "title": "Hidden Bay Hotel",
      "city": "Yeosu",
      "category": "luxury hotel",
      "description": "Cliffside luxury hotel overlooking Yeosu Bay.",
      "address": "496-25 Sinwol-ro, Yeosu-si",
      "lat": 34.7295,
      "lng": 127.7362,
      "price_range": "240,000-420,000 KRW",
      "hours": "Check-in 15:00 / Check-out 12:00",
      "image": "https://english.visitkorea.or.kr/image/hidden_bay.jpg",
      "specialty": "Ocean sunset"
    },

    {
      "id": "mokpo_1",
      "title": "Shangria Beach Hotel",
      "city": "Mokpo",
      "category": "seaside hotel",
      "description": "Relaxing beachfront hotel with ocean views.",
      "address": "43 Pyeonghwa-ro, Mokpo-si",
      "lat": 34.8118,
      "lng": 126.3921,
      "price_range": "120,000-220,000 KRW",
      "hours": "Check-in 15:00 / Check-out 11:00",
      "image": "https://english.visitkorea.or.kr/image/shangria_mokpo.jpg",
      "specialty": "Beach access"
    },
    {
      "id": "mokpo_2",
      "title": "Hotel Hyundai Mokpo",
      "city": "Mokpo",
      "category": "business hotel",
      "description": "Business-friendly accommodation located near Mokpo Port.",
      "address": "91 Daebul-ro, Samho-eup, Yeongam-gun",
      "lat": 34.7918,
      "lng": 126.3811,
      "price_range": "110,000-200,000 KRW",
      "hours": "Check-in 14:00 / Check-out 12:00",
      "image": "https://english.visitkorea.or.kr/image/hyundai_mokpo.jpg",
      "specialty": "Port proximity"
    }
  ]
}
